{
  "webcams":[
  {
    "url" : "212.142.228.68",
    "request" : "/axis-cgi/mjpg/video.cgi",
    "port" : "80",
    "sunrise": "08:40:00 +0100",
    "name" : "San Sebastian, Spain",
    "slug" : "sansebastian",
    "website" : "http://www.kursaal.com.es/",
    "location" : {
      "lat" : 43.325896,
      "lng" : -1.977757
    }
  },{
    "url" : "216.123.238.207",
    "request" : "/axis-cgi/mjpg/video.cgi",
    "port" : "80",
    "sunrise": "08:49:00 -0700",
    "name" : "Edmonton International Airport, Canada",
    "slug" : "edmonton",
    "website" : "http://flyeia.com/node/32374",
    "location" : {
      "lat" : 53.309032,
      "lng" : -113.596587
    }
  },{
    "url" : "213.211.42.237",
    "request" : "/axis-cgi/mjpg/video.cgi",
    "port" : "80",
    "sunrise": "07:53:00 +0100",
    "name" : "Pribyslav, Czech Republic",
    "slug" : "pribyslav",
    "website" : "http://www.pribyslav.cz/",
    "location" : {
      "lat" : 49.57720,
      "lng" : 15.73860
    }
  },{
    "url" : "webcam.erieyachtclub.org",
    "request" : "/axis-cgi/mjpg/video.cgi",
    "port" : "80",
    "sunrise": "07:47:00 -0500",
    "name" : "Erie Yacht Club, Pennsylvania",
    "slug" : "erie",
    "website" : "http://www.erieyachtclub.org/",
    "location" : {
      "lat" : 42.121766,
      "lng" : -80.130976
    }
  },{
    "url" : "88.250.131.53",
    "request" : "/axis-cgi/mjpg/video.cgi",
    "port" : "82",
    "sunrise": "07:28:00 +0200",
    "name" : "Istambul, Turkey",
    "slug" : "istambul",
    "website" : "http://www.42maslak.com",
    "location" : {
      "lat" : 41.113471,
      "lng" : 29.019048
    }
  },{
    "url" : "84.205.45.113",
    "request" : "/axis-cgi/mjpg/video.cgi",
    "port" : "8888",
    "sunrise": "09:43:00 +0100",
    "name" : "Norheimsund, Norway",
    "slug" : "norway",
    "website" : "http://www.baatsans.no/havn/65",
    "location" : {
      "lat" : 60.372731,
      "lng" :  6.147169
    }
  },{
    "url" : "193.253.96.116",
    "request" : "/axis-cgi/mjpg/video.cgi",
    "port" : "8081",
    "sunrise": "05:41:00 +0400",
    "name" : "Boucan Canot, La Reunion",
    "slug" : "boucancanot",
    "website" : "http://www.boucancanot.com/en/home.html",
    "location" : {
      "lat" : -21.022983,
      "lng" :  55.22687
    }
  },{
    "url" : "webcam.uoregon.edu",
    "request" : "/axis-cgi/mjpg/video.cgi",
    "port" : "80",
    "sunrise": "07:47:00 -0800",
    "name" : "Eugene, Oregon",
    "slug" : "eugene",
    "website" : "http://uoregon.edu/",
    "location" : {
      "lat" : 44.063413,
      "lng" : -123.086128 
    }
  },{
    "url" : "129.2.16.181",
    "request" : "/axis-cgi/mjpg/video.cgi",
    "port" : "80",
    "sunrise": "07:24:00 -0500",
    "name" : "College Park, Maryland",
    "slug" : "college",
    "website" : "",
    "location" : {
      "lat" : 39.364032,
      "lng" : -76.888218
    }
  },{
    "url" : "nsbsitecam.clayton.edu",
    "request" : "/axis-cgi/mjpg/video.cgi",
    "port" : "80",
    "sunrise": "07:40:00 -0500",
    "name" : "Morrow, Georgia",
    "slug" : "morrow",
    "website" : "http://www.clayton.edu/",
    "location" : {
      "lat" : 33.595604,
      "lng" : -84.329045
    }
  },{
    "url" : "iris.not.iac.es",
    "request" : "/axis-cgi/mjpg/video.cgi",
    "port" : "80",
    "sunrise": "07:52:00 +0000",
    "name" : "Las Palmas, Canary Islands",
    "slug" : "laspalmas",
    "website" : "",
    "location" : {
      "lat" : 28.775483,
      "lng" : -17.882423
    }
  },{
    "url" : "93.51.197.146",
    "request" : "/axis-cgi/mjpg/video.cgi",
    "port" : "9998",
    "sunrise": "07:12:00 +0100",
    "name" : "Bagnara Calabra, Italy",
    "slug" : "bagnara",
    "website" : "http://www.bagnaraonline.com/",
    "location" : {
      "lat" : 38.289078,
      "lng" : 15.804967
    }
  },{
    "url" : "107.1.228.34",
    "request" : "/axis-cgi/mjpg/video.cgi",
    "port" : "80",
    "sunrise": "07:17:00 -0500",
    "name" : "Atlantic City, New Jersey",
    "slug" : "atlantic",
    "website" : "",
    "location" : {
      "lat" : 39.374118,
      "lng" : -74.457779
    }
  }
  ,{ 
    "url" : "75.44.34.10",
    "request" : "/axis-cgi/mjpg/video.cgi",
    "port" : "80",
    "sunrise": "07:22:00 -0600",
    "name" : "Milwaukee, Wisconsin",
    "slug" : "milwaukee",
    "website" : "",
    "location" : {
      "lat" : 43.0389,
      "lng" : -87.9065
    }
  }
  ,{ 
    "url" : "herrimanelem4north.axiscam.net",
    "request" : "/axis-cgi/mjpg/video.cgi",
    "port" : "8002",
    "sunrise": "07:51:00 -0700",
    "name" : "Salt Lake City, Utah",
    "slug" : "saltlake",
    "website" : "",
    "location" : {
      "lat" : 40.782621,
      "lng" : -111.976204
    }
  }
  ,{ 
    "url" : "launch.axiscam.net",
    "request" : "/axis-cgi/mjpg/video.cgi",
    "port" : "53435",
    "sunrise": "07:58:00 -0800",
    "name" : "Everett, Washington",
    "slug" : "everett",
    "website" : "",
    "location" : {
      "lat" : 47.989922,
      "lng" : -122.204475
    }
  }
  ,{ 
    "url" : "seabest.axiscam.net",
    "request" : "/axis-cgi/mjpg/video.cgi",
    "port" : "81",
    "sunrise": "07:46:00 +0900",
    "name" : "Seoul, Korea",
    "slug" : "seoul",
    "website" : "",
    "location" : {
      "lat" : 37.597912,
      "lng" : 126.979179
    }
  }
  ,{ 
    "url" : "leig17.axiscam.net",
    "request" : "/axis-cgi/mjpg/video.cgi",
    "port" : "170",
    "sunrise": "08:16:00 +0100",
    "name" : "Igualada, Spain",
    "slug" : "igualada",
    "website" : "",
    "location" : {
      "lat" : 41.621602,
      "lng" : 1.611786
    }
  }
  ,{ 
    "url" : "aya-tsuri.axiscam.net",
    "request" : "/axis-cgi/mjpg/video.cgi",
    "port" : "60001",
    "sunrise": "07:00:00 +0900",
    "name" : "Okaya, Japan",
    "slug" : "okaya",
    "website" : "",
    "location" : {
      "lat" : 36.026577,
      "lng" : 138.017542
    }
  }
  
  ]
}
